district,region,capital,latitude,longitude
Abura/Asebu/Kwamankese District,Central,Abura-Dunkwa,5.3388997,-1.1687974
Accra Metropolitan District,Greater Accra,Accra,5.55,-0.2
Adaklu District,Volta,Adaklu Waya,6.4461995,0.6243133
Adansi North District,Ashanti,Fomena,6.266667,-1.5
Adansi South District,Ashanti,New Edubiase,6.066667,-1.4
Afigya-Kwabre District,Ashanti,Kodie,6.7964428,-1.6474533
Agona West Municipal District,Central,Agona Swedru,5.530556,-0.702778
Ahafo Ano North District,Ashanti,Tepa,7,-2.166667
Ahafo Ano South District,Ashanti,Mankranso,6.816667,-1.866667
Ahanta West District,Western,Agona Nkwanta,4.8883,-1.9658
Ajumako/Enyan/Essiam District,Central,Ajumako,,
Akatsi South District,Volta,Akatsi,6.131022,0.798211
Akuapim North District,Eastern,Akropong,5.974167,-0.088056
Akuapim South District,Eastern,Nsawam,5.8,-0.35
Amansie Central District,Ashanti,Jacobu,6.35,-1.666667
Amansie West District,Ashanti,Manso Nkwanta,6.466667,-1.883333
Aowin/Suaman District,Western,Enchi,5.816667,-2.816667
Asante Akim North District,Ashanti,Agogo,6.8,-1.083333
Asante Akim South District,Ashanti,Juaso,6.6,-1.133333
Asikuma/Odoben/Brakwa District,Central,Breman Asikuma,5.5811,-0.9944
Assin North Municipal District,Central,Assin Foso,5.7023373,-1.2851472
Assin South District,Central,Assin Kyekyewere,,
Asunafo North Municipal District,Brong-Ahafo,Goaso,6.8,-2.516667
Asunafo South District,Brong-Ahafo,Kukuom,6.7,-2.45
Asuogyaman District,Eastern,Atimpoku,6.2060915,0.082045
Asutifi District,Brong-Ahafo,Kenyasi,6.983333,-2.383333
Atebubu-Amantin District,Brong-Ahafo,Atebubu,7.75,-0.983333
Atiwa District,Eastern,Kwabeng,6.316667,-0.583333
Atwima Kwanwoma District,Ashanti,Ofoase-Kokoben,,
Atwima Mponua District,Ashanti,Nyinahin,6.6,-2.116667
Atwima Nwabiagya District,Ashanti,Nkawie,6.666667,-1.816667
Ayensuano District,Eastern,Coaltar,,
Bawku Municipal District,Upper East,Bawku,11.05,-0.233333
Bawku West District,Upper East,Zebilla,10.916667,-0.516667
Berekum Municipal District,Brong-Ahafo,Berekum,7.45,-2.583333
Bia District,Western,Essam,6.666667,-3.1
Bia East District,Western,Debiso,,
Bibiani/Anhwiaso/Bekwai District,Western,Bibiani,6.216667,-2.35
Birim North District,Eastern,New Abirem,6.3,-0.983333
Birim South District,Eastern,Akim Swedru,5.893956,-1.012667
Bole District,Northern,Bole,9.033333,-2.483333
Bolgatanga Municipal District,Upper East,Bolgatanga,10.783333,-0.85
Bongo District,Upper East,Bongo,10.9105463,-0.8083988
Bosome Freho District,Ashanti,Asiwa,6.416667,-1.333333
Botsomtwe District,Ashanti,Kuntanase,6.533581,-1.473897
Builsa District,Upper East,Sandema,10.733333,-1.283333
Bunkpurugu-Yunyoo District,Northern,Bunkpurugu,10.516667,0.1
Cape Coast Metropolitan District,Central,Cape Coast,5.1133378,-1.2512611
Central Gonja District,Northern,Buipe,8.783333,-1.533333
Central Tongu District,Volta,Adiodome,6.0669586,0.5020599
Chereponi District,Northern,Chereponi,10.1369335,0.2887125
Dangme East District,Greater Accra,Ada Foah,5.783333,0.633333
Dangme West District,Greater Accra,Dodowa,5.883333,0.116667
Dormaa Municipal District,Brong-Ahafo,Dormaa Ahenkro,7.283333,-2.883333
East Akim Municipal District,Eastern,Kibi,6.166667,-0.55
East Gonja District,Northern,Salaga,8.55,-0.516667
East Mamprusi District,Northern,Gambaga,10.530556,-0.442222
Effutu Municipal District,Central,Winneba,5.3501527,-0.6286895
Ejisu-Juaben Municipal District,Ashanti,Ejisu,6.714975,-1.511181
Ejura - Sekyedumase District,Ashanti,Ejura,7.383333,-1.366667
Fanteakwa District,Eastern,Begoro,6.383333,-0.383333
Ga East Municipal District,Greater Accra,Abokobi,5.733333,-0.2
Ga West Municipal District,Greater Accra,Amasaman,5.7,-0.3
Garu-Tempane District,Upper East,Garu,10.85,-0.166667
Gomoa West District,Central,Apam,5.278889,-0.739722
Gushegu District,Northern,Gushegu,9.919167,-0.218056
Ho Municipal District,Volta,Ho,6.611944,0.470278
Hohoe Municipal District,Volta,Hohoe,7.149039,0.4746
Jaman North District,Brong-Ahafo,Sampa,7.95,-2.7
Jaman South District,Brong-Ahafo,New Drobo,7.5839783,-2.7892639
Jasikan District,Volta,Jasikan,7.410833,0.466944
Jirapa District,Upper West,Jirapa,10.533333,-2.7
Jomoro District,Western,Half-Assini,5.05,-2.883333
Juabeso District,Western,Juaboso,6.333333,-2.833333
Kadjebi District,Volta,Kadjebi,7.5275,0.475833
Karaga District,Northern,Karaga,9.925,-0.429722
Kassena Nankana East District,Upper East,Navrongo,10.8975774,-1.1034394
Keta Municipal District,Volta,Keta,5.916667,0.983333
Ketu South Municipal District,Volta,Denu,6.101111,1.147778
Kintampo North Municipal District,Brong-Ahafo,Kintampo,8.052222,-1.734722
Kintampo South District,Brong-Ahafo,Jema,7.9,-1.77
Komenda/Edina/Eguafo/Abirem Municipal District,Central,Elmina,5.083333,-1.35
Krachi East District,Volta,Dambai,8.068889,0.179167
Krachi West District,Volta,Kete Krachi,7.8,-0.016667
Kumasi Metropolitan District,Ashanti,Kumasi,6.683333,-1.616667
Kumawu District,Ashanti,Kumawu,,
Kwabre East District,Ashanti,Mamponteng,6.73706,-1.54864
Kwaebibirem District,Eastern,Kade,6.083333,-0.833333
Kwahu North District,Eastern,Donkorkrom,7.05,-0.05
Kwahu South District,Eastern,Mpraeso,6.58,-0.729722
Kwahu West Municipal District,Eastern,Nkawkaw,6.55,-0.766667
Lawra District,Upper West,Lawra,10.65,-2.866667
Lower Manya Krobo District,Eastern,Odumase Krobo,,
Mfantsiman Municipal District,Central,Saltpond,5.2,-1.066667
Mpohor District,Western,Mpohor,4.9736803,-1.8958173
Nadowli District,Upper West,Nadowli,10.366667,-2.65
Nanumba North District,Northern,Bimbilla,8.8575342,0.05616
Nanumba South District,Northern,Wulensi,8.65,0.016667
New-Juaben Municipal District,Eastern,Koforidua,6.083333,-0.25
Nkoranza South Municipal District,Brong-Ahafo,Nkronza,7.566667,-1.7
Nkwanta South District,Volta,Nkwanta,8.266667,0.516667
North Dayi District,Volta,Anfeoga,6.8858,0.2783
North Tongu District,Volta,Battor Dugame,,
Nzema East Municipal District,Western,Axim,4.866667,-2.233333
Offinso South Municipal District,Ashanti,Offinso,6.9570113,-1.6794005
Pru District,Brong-Ahafo,Yeji,8.216667,-0.65
Saboba District,Northern,Saboba,9.7084972,0.3172143
Sagnarigu District,Northern,Sagnarigu,,
Savelugu-Nanton District,Northern,Savelugu,9.616667,-0.833333
Sawla-Tuna-Kalba District,Northern,Sawla,9.283333,-2.416667
Sefwi-Wiawso District,Western,Wiawaso,6.215833,-2.485
Sekyere Afram Plains District,Ashanti,Kumawu,,
Sekyere Central District,Ashanti,Nsuta,7.016667,-1.383333
Sekyere East District,Ashanti,Effiduase,6.8426,-1.397692
Sekyere South District,Ashanti,Agona,6.9335538,-1.4915641
Sene West District,Brong-Ahafo,Kwame Danso,7.733333,-0.683333
Shama District,Western,Shama,5.016667,-1.633333
Sissala East District,Upper West,Tumu,10.883333,-1.983333
Sissala West District,Upper West,Gwollu,10.981111,-2.221111
South Dayi District,Volta,Kpeve New Town,6.683611,0.333611
South Tongu District,Volta,Sogakope,6,0.6
Suhum/Kraboa/Coaltar District,Eastern,Suhum,6.033333,-0.45
Sunyani Municipal District,Brong-Ahafo,Sunyani,7.333333,-2.333333
Tain District,Brong-Ahafo,Nsawkaw,7.866667,-2.316667
Talensi District,Upper East,Tongo,10.716667,-0.8
Tamale Metropolitan District,Northern,Tamale,9.4075,-0.853333
Tano North District,Brong-Ahafo,Duayaw Nkwanta,7.166667,-2.1
Tano South District,Brong-Ahafo,Bechem,7.083333,-2.016667
Tarkwa-Nsuaem Municipal District,Western,Tarkwa,5.363333,-1.947778
Techiman Municipal District,Brong-Ahafo,Techiman,7.577222,-1.929167
Tema Metropolitan District,Greater Accra,Tema,5.666667,0
Tolon District,Northern,Tolon,9.433333,-1.066667
Twifo/Heman/Lower Denkyira District,Central,Heman,5.4860089,-1.5327519
Upper Denkyira East Municipal District,Central,Dunkwa-on-Offin,5.9667,-1.7833
Upper Manya Krobo District,Eastern,Asesewa,6.4,-0.15
Wa East District,Upper West,Funsi,10.288611,-1.971111
Wa Municipal District,Upper West,Wa,10.066667,-2.5
Wa West District,Upper West,Wechiau,9.833333,-2.683333
Wasa Amenfi East District,Western,Wassa-Akropong,5.787222,-2.083611
Wasa Amenfi West District,Western,Asankrangua,5.8103229,-2.4534275
West Akim Municipal District,Eastern,Asamankese,5.866667,-0.666667
West Gonja District,Northern,Damongo,9.083333,-1.816667
West Mamprusi District,Northern,Walewale,10.35,-0.8
Yendi Municipal District,Northern,Yendi,9.432436,-0.004258
Yilo Krobo District,Eastern,Somanya,6.103889,-0.015
Zabzugu District,Northern,Zabzugu,9.2939919,0.3676961
